City_ID,City,Country,Lat,Lng,Max Temp,Humidity,Cloudiness,Wind Speed,Current Description
0,Bethel,US,41.3712,-73.414,70.11,93,1,0.0,clear sky
1,Severo-Kurilsk,RU,50.6789,156.125,58.71,95,61,5.64,broken clouds
2,Vao,NC,-22.6667,167.4833,69.31,61,58,15.95,broken clouds
3,Rikitea,PF,-23.1203,-134.9692,72.25,78,79,12.64,light rain
4,Sola,VU,-13.8833,167.55,77.67,100,90,0.0,overcast clouds
5,Yellowknife,CA,62.456,-114.3525,52.29,84,20,5.75,few clouds
6,Busselton,AU,-33.65,115.3333,60.04,78,90,26.13,overcast clouds
7,Kurdzhinovo,RU,43.9884,40.9552,81.79,53,1,6.98,clear sky
8,Thompson,CA,55.7435,-97.8558,33.96,93,20,2.3,few clouds
9,Port Hardy,CA,50.6996,-127.4199,56.82,95,53,2.98,broken clouds
10,Tres Lagoas,BR,-20.7511,-51.6783,62.55,47,0,4.68,clear sky
11,Sao Filipe,CV,14.8961,-24.4956,74.61,72,63,1.43,broken clouds
12,Bilibino,RU,68.0546,166.4372,54.5,58,95,6.35,overcast clouds
13,North Bend,US,43.4065,-124.2243,58.24,94,90,9.22,overcast clouds
14,Kouango,CF,4.9934,19.9619,79.12,74,100,5.97,overcast clouds
15,Presque Isle,US,46.6811,-68.0159,64.83,94,90,4.61,moderate rain
16,Alice Springs,AU,-23.7,133.8833,69.35,14,49,5.75,scattered clouds
17,Pevek,RU,69.7008,170.3133,35.29,92,15,12.84,few clouds
18,Mirante Do Paranapanema,BR,-22.2919,-51.9064,44.53,45,1,5.39,clear sky
19,East London,ZA,-33.0153,27.9116,72.54,21,0,8.05,clear sky
20,Manokwari,ID,-0.8667,134.0833,80.96,72,15,2.04,few clouds
21,Dongargaon,IN,20.9667,80.85,85.53,64,100,18.57,overcast clouds
22,Khatanga,RU,71.9667,102.5,70.07,42,36,3.4,scattered clouds
23,Neuquen,AR,-38.9516,-68.0591,31.89,100,0,3.44,clear sky
24,Hobart,AU,-42.8794,147.3294,55.26,67,20,5.99,few clouds
25,Cidreira,BR,-30.1811,-50.2056,64.06,90,100,2.62,overcast clouds
26,Siva,EG,29.2041,25.5195,86.65,34,0,6.02,clear sky
27,Mataura,NZ,-46.1927,168.8643,48.47,99,100,3.36,light rain
28,Ribeira Grande,PT,38.5167,-28.7,70.2,78,20,14.97,few clouds
29,Arraial Do Cabo,BR,-22.9661,-42.0278,67.96,77,0,13.8,clear sky
30,Batagay-Alyta,RU,67.8006,130.4114,70.09,50,72,13.13,broken clouds
31,Punta Arenas,CL,-53.15,-70.9167,35.71,93,90,5.75,overcast clouds
32,Saskylakh,RU,71.9167,114.0833,60.64,59,100,8.84,overcast clouds
33,Cape Town,ZA,-33.9258,18.4232,70.21,12,0,13.8,clear sky
34,Sembakung,ID,3.8167,117.25,85.93,59,71,4.29,broken clouds
35,Mar Del Plata,AR,-38.0023,-57.5575,44.13,57,0,3.0,light rain
36,Qaanaaq,GL,77.484,-69.3632,38.84,65,91,7.02,overcast clouds
37,Avarua,CK,-21.2078,-159.775,77.05,83,75,12.66,broken clouds
38,Phalombe,MW,-15.8064,35.6507,65.57,53,20,5.1,few clouds
39,Touros,BR,-5.1989,-35.4608,72.5,89,32,10.56,scattered clouds
40,Okhotsk,RU,59.3833,143.3,60.21,88,84,9.28,broken clouds
41,Napier,NZ,-39.4833,176.9167,54.28,79,85,7.0,overcast clouds
42,Hasaki,JP,35.7333,140.8333,77.4,84,100,25.72,overcast clouds
43,Miyako,JP,39.6367,141.9525,72.23,87,100,10.87,overcast clouds
44,Honningsvag,NO,70.9821,25.9704,47.95,76,90,3.44,overcast clouds
45,New Norfolk,AU,-42.7826,147.0587,54.91,68,91,3.0,light rain
46,Rio Grande,BR,-32.035,-52.0986,58.93,97,100,8.72,overcast clouds
47,Ushuaia,AR,-54.8,-68.3,33.46,75,90,10.36,overcast clouds
48,Bilma,NE,18.6853,12.9164,89.67,45,98,9.22,overcast clouds
49,Pachino,IT,36.7186,15.0907,92.61,49,0,9.55,clear sky
50,Vaini,TO,-21.2,-175.2,71.76,94,75,1.14,broken clouds
51,Padang,ID,-0.9492,100.3543,86.05,72,54,3.83,broken clouds
52,Alofi,NU,-19.0595,-169.9187,67.89,94,40,0.0,scattered clouds
53,Lompoc,US,34.6391,-120.4579,60.01,94,90,4.61,fog
54,Praxedis Guerrero,MX,31.3667,-106.0167,79.81,52,100,3.31,overcast clouds
55,Port Elizabeth,ZA,-33.918,25.5701,75.09,27,0,8.05,clear sky
56,Belaya Gora,RU,68.5333,146.4167,61.95,33,99,10.67,overcast clouds
57,Dikson,RU,73.5069,80.5464,42.85,90,70,3.27,broken clouds
58,Atuona,PF,-9.8,-139.0333,78.37,70,30,23.71,scattered clouds
59,Mahebourg,MU,-20.4081,57.7,77.25,69,75,13.8,light rain
60,Tazovskiy,RU,67.4667,78.7,49.51,91,100,5.57,light rain
61,Yerbogachen,RU,61.2767,108.0108,86.22,33,36,5.57,scattered clouds
62,Kitimat,CA,54.0524,-128.6534,57.9,96,100,0.69,moderate rain
63,Fort Nelson,CA,58.8053,-122.7002,60.39,63,75,13.8,light rain
64,Iki-Burul,RU,45.8208,44.6472,91.74,29,99,16.17,overcast clouds
65,Kavaratti,IN,10.5669,72.642,81.99,79,99,19.98,overcast clouds
66,Sabang,ID,5.8933,95.3214,83.84,76,91,22.24,overcast clouds
67,Henties Bay,NA,-22.116,14.2845,79.77,27,0,29.59,clear sky
68,Longyearbyen,SJ,78.2186,15.6401,44.44,87,40,11.5,scattered clouds
69,Tiksi,RU,71.6872,128.8694,47.1,88,95,14.16,overcast clouds
70,Bredasdorp,ZA,-34.5322,20.0403,70.92,26,100,14.97,overcast clouds
71,Jamestown,US,42.097,-79.2353,68.07,97,75,3.42,fog
72,College,US,64.8569,-147.8028,59.79,76,75,0.0,broken clouds
73,Tuktoyaktuk,CA,69.4541,-133.0374,42.71,89,99,2.53,overcast clouds
74,Ust-Nera,RU,64.5667,143.2,58.35,70,88,2.89,overcast clouds
75,Klaksvik,FO,62.2266,-6.589,52.72,91,93,7.78,overcast clouds
76,Colares,PT,38.7992,-9.4469,73.29,70,40,10.0,scattered clouds
77,Lorengau,PG,-2.0226,147.2712,82.35,71,21,0.49,few clouds
78,Kazachinskoye,RU,57.6953,93.2761,90.39,28,1,9.17,clear sky
79,Nikolskoye,RU,59.7035,30.7861,80.49,33,2,4.14,clear sky
80,Ossora,RU,59.2353,163.0719,59.02,92,84,5.68,broken clouds
81,Fukue,JP,32.6881,128.8419,82.76,69,0,3.44,clear sky
82,Poum,NC,-20.2333,164.0167,71.73,69,9,20.38,clear sky
83,Conceicao Da Barra,BR,-18.5933,-39.7322,64.51,90,28,2.24,scattered clouds
84,Perth,AU,-31.9333,115.8333,61.09,96,90,18.41,moderate rain
85,Kavieng,PG,-2.5744,150.7967,81.37,75,29,5.57,moderate rain
86,Cumberland,US,35.0502,-78.8664,75.87,93,1,4.61,clear sky
87,Envira,BR,-7.3,-70.2167,70.29,88,24,2.19,few clouds
88,Albany,US,42.6001,-73.9662,66.9,96,0,3.31,clear sky
89,Bayburt,TR,40.2589,40.2278,87.42,21,3,8.14,clear sky
90,Roald,NO,62.5833,6.1333,83.16,82,0,8.05,clear sky
91,Bengkulu,ID,-3.8004,102.2655,84.24,61,28,8.41,scattered clouds
92,Gonaives,HT,19.45,-72.6833,75.58,81,89,3.67,overcast clouds
93,Portland,US,45.5234,-122.6762,66.43,75,1,1.01,clear sky
94,Palmer,US,42.1584,-72.3287,69.73,83,90,0.0,fog
95,Bibiani,GH,6.4635,-2.3194,75.33,78,52,3.56,broken clouds
96,Marshall,US,34.3834,-86.3333,75.49,86,1,0.0,clear sky
97,Kapaa,US,22.0752,-159.319,80.92,83,40,1.01,light rain
98,Flinders,AU,-34.5833,150.8552,60.19,65,100,4.0,overcast clouds
99,Port Alfred,ZA,-33.5906,26.891,70.68,28,72,13.78,broken clouds
100,Hithadhoo,MV,-0.6,73.0833,82.31,75,97,9.82,light rain
101,Znamenskoye,RU,57.1281,73.8282,66.87,41,15,13.96,few clouds
102,Itaituba,BR,-4.2761,-55.9836,68.59,70,14,1.19,few clouds
103,Kailua,US,21.4022,-157.7394,80.58,76,75,11.5,broken clouds
104,Sao Joao Da Barra,BR,-21.6403,-41.0511,63.55,85,0,8.75,clear sky
105,Butaritari,KI,3.0707,172.7902,79.29,80,100,6.76,overcast clouds
106,Ixtapa,MX,20.7,-105.2,76.23,97,100,3.27,overcast clouds
107,Te Anau,NZ,-45.4167,167.7167,42.46,95,83,0.58,light rain
108,Marneuli,GE,41.4759,44.8089,83.14,31,21,10.07,few clouds
109,Adrar,MR,20.5022,-10.0711,93.97,14,1,6.29,clear sky
110,Constitucion,CL,-35.3333,-72.4167,50.7,91,93,4.81,overcast clouds
111,Piacabucu,BR,-10.4056,-36.4344,71.85,89,72,7.23,broken clouds
112,Senador Jose Porfirio,BR,-2.5908,-51.9542,71.38,74,18,3.15,few clouds
113,Termoli,IT,41.9888,14.9895,94.78,26,100,8.84,overcast clouds
114,Nambucca Heads,AU,-30.65,153.0,53.17,57,64,6.58,broken clouds
115,Kaitangata,NZ,-46.2817,169.8464,47.35,94,100,4.9,light rain
116,Broome,US,42.2506,-75.833,65.64,88,1,3.44,mist
117,Sobolevo,RU,54.4299,31.8996,79.21,45,5,6.64,clear sky
118,Carlos Chagas,BR,-17.7031,-40.7664,62.47,92,48,2.42,scattered clouds
119,Stornoway,GB,58.2093,-6.3865,60.93,88,75,2.3,broken clouds
120,Nangomba,TZ,-10.9,38.5,78.44,36,9,10.31,clear sky
121,Nabire,ID,-3.3667,135.4833,80.26,81,29,2.8,scattered clouds
122,Vilhena,BR,-12.7406,-60.1458,65.05,62,3,2.37,clear sky
123,Hilo,US,19.7297,-155.09,74.93,91,90,0.0,moderate rain
124,Castro,BR,-24.7911,-50.0119,52.77,55,0,4.03,clear sky
125,Jelgava,LV,56.65,23.7128,82.44,36,28,8.55,scattered clouds
126,Edd,ER,13.9297,41.6925,90.64,56,84,8.32,broken clouds
127,Nanortalik,GL,60.1432,-45.2371,46.36,69,85,9.55,overcast clouds
128,Komsomolskiy,UZ,40.4272,71.7189,104.72,11,0,9.22,clear sky
129,Cayenne,GF,4.9333,-52.3333,74.08,91,90,0.0,mist
130,Kodiak,US,57.79,-152.4072,50.32,92,42,5.64,scattered clouds
131,Sayat,TM,38.7839,63.8803,109.27,9,0,29.37,clear sky
132,Kapit,MY,2.0167,112.9333,88.79,62,88,1.59,overcast clouds
133,Vardo,NO,70.3705,31.1107,50.2,81,75,20.71,broken clouds
134,Geraldton,AU,-28.7667,114.6,68.41,83,90,23.02,overcast clouds
135,Cotonou,BJ,6.3654,2.4183,79.09,71,55,13.58,broken clouds
136,Evensk,RU,61.95,159.2333,49.03,99,100,2.86,moderate rain
137,Saldanha,ZA,-33.0117,17.9442,69.85,46,100,21.79,overcast clouds
138,Louis Trichardt,ZA,-23.0439,29.9032,56.48,57,54,8.16,broken clouds
139,Sitka,US,57.0531,-135.33,51.69,87,40,5.75,scattered clouds
140,Kofele,ET,7.0667,38.7833,51.82,88,100,5.28,overcast clouds
141,Berdigestyakh,RU,62.0989,126.6992,83.91,45,8,5.21,clear sky
142,Saint George,US,37.1041,-113.5841,79.63,69,1,5.99,clear sky
143,Provideniya,RU,64.3833,-173.3,48.94,95,100,2.35,overcast clouds
144,Tomatlan,MX,19.9333,-105.25,76.59,95,96,3.11,overcast clouds
145,Mao,ES,39.8885,4.2658,81.16,61,0,16.11,clear sky
146,Sinnamary,GF,5.3833,-52.95,75.94,89,24,4.9,few clouds
147,Ulaangom,MN,49.9811,92.0667,77.59,42,87,7.99,overcast clouds
148,Vredendal,ZA,-31.6683,18.5012,72.57,21,87,25.55,overcast clouds
149,Mana,GF,5.6592,-53.7767,75.06,92,26,4.43,scattered clouds
150,Lavrentiya,RU,65.5833,-171.0,43.66,97,100,5.7,overcast clouds
151,Bluff,NZ,-46.6,168.3333,48.79,89,100,15.39,overcast clouds
152,Lebu,CL,-37.6167,-73.65,43.18,78,5,13.31,clear sky
153,Killybegs,IE,54.6333,-8.45,60.51,86,100,4.59,overcast clouds
154,Shimoda,JP,34.6667,138.95,79.11,76,100,2.66,moderate rain
155,Christchurch,NZ,-43.5333,172.6333,51.01,83,73,1.99,broken clouds
156,Hermanus,ZA,-34.4187,19.2345,62.67,56,100,5.23,overcast clouds
157,Nampula,MZ,-15.1165,39.2666,69.75,64,75,16.11,broken clouds
158,Sao Felix Do Xingu,BR,-6.6447,-51.995,66.25,63,77,1.95,broken clouds
159,Imbituba,BR,-28.24,-48.6703,64.29,77,29,7.23,moderate rain
160,Tessalit,ML,20.1986,1.0114,93.07,32,86,12.1,overcast clouds
161,Najran,SA,17.4924,44.1277,97.45,24,79,12.21,broken clouds
162,Iqaluit,CA,63.7506,-68.5145,42.53,100,90,8.01,fog
163,Torbay,CA,47.6666,-52.7314,55.76,98,90,3.44,light intensity drizzle
164,Necochea,AR,-38.5473,-58.7368,46.15,78,2,14.36,clear sky
165,Mombetsu,JP,44.3525,143.3525,73.24,76,0,3.83,clear sky
166,Vila Velha,BR,-20.3297,-40.2925,58.95,94,0,2.3,clear sky
167,Bambous Virieux,MU,-20.3428,57.7575,77.22,69,75,13.8,light rain
168,Ndioum,SN,16.5129,-14.6471,82.38,60,50,14.97,scattered clouds
169,Lata,PT,40.1629,-8.3327,71.04,68,29,4.27,scattered clouds
170,Faanui,PF,-16.4833,-151.75,78.37,74,37,11.56,scattered clouds
171,Asau,RO,46.4333,26.4,82.96,41,6,5.01,clear sky
172,Beringovskiy,RU,63.05,179.3167,50.79,93,100,5.88,overcast clouds
173,Tigil,RU,57.8,158.6667,66.33,93,100,16.02,light rain
174,San Quintin,MX,30.4833,-115.95,66.33,89,99,4.7,overcast clouds
175,Morondava,MG,-20.2833,44.2833,74.43,46,89,7.05,overcast clouds
176,Hobyo,SO,5.3505,48.5268,83.91,58,16,27.49,few clouds
177,Tasiilaq,GL,65.6145,-37.6368,44.76,81,0,0.83,clear sky
178,Sao Gabriel Da Cachoeira,BR,-0.1303,-67.0892,70.61,99,100,1.88,overcast clouds
179,Ponta Do Sol,PT,32.6667,-17.1,79.0,76,1,0.83,clear sky
180,Mattru,SL,7.6244,-11.8332,75.65,90,91,3.56,light rain
181,Never,FR,46.9896,3.159,67.75,75,99,8.52,overcast clouds
182,Tabas,IR,33.5959,56.9244,107.02,8,0,23.98,clear sky
183,Puerto Ayora,EC,-0.7393,-90.3518,71.55,89,41,5.99,scattered clouds
184,Peniche,PT,39.3558,-9.3811,74.73,81,8,14.5,clear sky
185,Bayji,IQ,34.9311,43.487,115.36,11,0,12.35,clear sky
186,Vrangel,RU,42.7297,133.0839,79.21,84,60,4.68,broken clouds
187,Hovd,MN,48.0056,91.6419,76.32,39,95,8.28,overcast clouds
188,Pacific Grove,US,36.6177,-121.9166,60.91,91,90,1.99,overcast clouds
189,Tura,IN,25.5198,90.2201,83.61,83,100,2.59,overcast clouds
190,Seymchan,RU,62.8833,152.4333,46.08,92,100,8.1,light rain
191,Port Hawkesbury,CA,45.6169,-61.3485,65.59,96,75,1.99,broken clouds
192,Mount Isa,AU,-20.7333,139.5,62.37,27,4,0.0,clear sky
193,Suifenhe,CN,44.4,131.1667,84.81,55,94,9.8,overcast clouds
194,Kijang,KR,35.2442,129.2139,89.33,70,0,9.57,clear sky
195,Avera,US,33.194,-82.5271,75.07,84,22,3.87,few clouds
196,Wah,PK,33.798,72.6957,103.73,33,43,7.18,scattered clouds
197,Georgetown,MY,5.4112,100.3354,90.9,67,40,6.91,scattered clouds
198,Oussouye,SN,12.485,-16.5469,80.82,72,33,6.33,scattered clouds
199,Rafai,CF,4.95,23.9167,72.57,90,100,0.65,overcast clouds
200,Cortland,US,42.6001,-76.083,65.01,91,1,0.0,mist
201,Namibe,AO,-15.1961,12.1522,81.52,38,0,3.31,clear sky
202,Hirschaid,DE,49.8194,10.9908,77.88,65,84,3.98,broken clouds
203,Kyren,RU,51.6828,102.1408,78.76,49,28,3.47,scattered clouds
204,Arman,RU,59.7,150.1667,54.18,99,100,4.12,light rain
205,Meulaboh,ID,4.1363,96.1285,85.3,66,99,6.15,overcast clouds
206,Corowa,AU,-36.0333,146.3833,53.92,87,100,6.8,overcast clouds
207,Erzin,TR,36.9559,36.2,92.12,44,0,9.1,clear sky
208,Cabo San Lucas,MX,22.8909,-109.9124,82.62,68,7,10.74,clear sky
209,Nemuro,JP,43.3236,145.575,70.23,98,79,11.16,broken clouds
210,San Ramon,US,37.7799,-121.978,65.59,78,1,5.99,clear sky
211,Leningradskiy,RU,69.3833,178.4167,37.78,87,100,1.79,overcast clouds
212,Sao Jose Da Coroa Grande,BR,-8.8978,-35.1478,74.03,85,67,9.64,broken clouds
213,Namatanai,PG,-3.6667,152.4333,78.8,81,58,2.24,moderate rain
214,Kamaishi,JP,39.2667,141.8833,81.55,84,82,13.98,broken clouds
215,Slave Lake,CA,55.2834,-114.769,54.9,70,96,3.65,overcast clouds
216,Chengde,CN,40.9725,117.9361,80.53,80,94,6.6,overcast clouds
217,Clyde River,CA,70.4692,-68.5914,35.83,93,90,0.0,overcast clouds
218,Lake Havasu City,US,34.4839,-114.3224,84.81,61,1,4.0,clear sky
219,Santa Maria,BR,-29.6842,-53.8069,67.3,77,75,4.61,thunderstorm
220,Jumla,NP,29.2747,82.1838,70.56,89,100,3.8,overcast clouds
221,Oswego,US,43.4501,-76.1497,68.59,96,5,1.01,clear sky
222,Barrow,US,71.2906,-156.7887,37.42,99,90,8.05,fog
223,Tilichiki,RU,60.4667,166.1,52.3,99,100,4.36,light rain
224,Isangel,VU,-19.55,169.2667,73.98,74,91,15.99,overcast clouds
225,Pemangkat,ID,1.1667,108.9667,84.79,74,6,12.48,clear sky
226,San Cristobal,VE,7.7669,-72.225,63.5,97,96,1.19,overcast clouds
227,Portel,BR,-1.9356,-50.8211,70.59,84,25,2.98,scattered clouds
228,Kursumlija,RS,43.1458,21.2686,86.05,30,34,4.54,scattered clouds
229,Ostrovnoy,RU,68.0531,39.5131,48.33,83,96,24.81,overcast clouds
230,Dmitriyevka,RU,54.75,55.3333,70.48,27,42,6.89,scattered clouds
231,Pinega,RU,64.7001,43.3936,58.35,49,74,11.65,broken clouds
232,Gorontalo,ID,0.5412,123.0595,82.29,75,84,6.06,broken clouds
233,Chuzhou,CN,32.3219,118.2978,77.59,96,100,16.75,moderate rain
234,Tateyama,JP,34.9833,139.8667,84.02,64,100,10.8,overcast clouds
235,Kahului,US,20.8947,-156.47,78.06,87,40,18.41,scattered clouds
236,Grigoropolisskaya,RU,45.2972,41.0567,90.88,28,4,21.99,clear sky
237,Ettlingen,DE,48.9409,8.4076,78.26,67,16,4.14,few clouds
238,Codrington,AU,-38.2667,141.9667,54.05,86,100,16.35,overcast clouds
239,Guadalupe,MX,25.6833,-100.25,76.21,83,1,0.0,clear sky
240,Ushtobe,KZ,45.2514,77.9838,106.83,9,1,13.78,clear sky
241,Caceres,ES,39.522,-6.3748,75.79,48,2,6.67,clear sky
242,Mackay,AU,-21.15,149.2,62.04,59,9,8.16,clear sky
243,Chabahar,IR,25.2919,60.643,87.76,74,5,7.11,clear sky
244,Gamba,GA,-2.65,10.0,75.63,75,77,6.44,broken clouds
245,Souillac,MU,-20.5167,57.5167,77.36,69,75,13.8,broken clouds
246,Ahipara,NZ,-35.1667,173.1667,54.95,79,97,15.9,overcast clouds
247,Vielsalm,BE,50.2841,5.915,65.86,92,100,8.16,overcast clouds
248,Hofn,IS,64.2539,-15.2082,53.62,82,75,6.91,broken clouds
249,Camden,US,39.7835,-74.9663,74.79,90,97,3.62,overcast clouds
250,Carnarvon,AU,-24.8667,113.6333,69.87,70,40,13.8,scattered clouds
251,Vallenar,CL,-28.5708,-70.7581,47.32,69,0,1.86,clear sky
252,Burnie,AU,-41.0667,145.9167,53.92,86,59,14.23,light rain
253,Upernavik,GL,72.7868,-56.1549,43.45,71,100,7.83,overcast clouds
254,Dhidhdhoo,MV,6.8833,73.1,82.35,77,95,14.29,overcast clouds
255,Saint-Joseph,RE,-21.3667,55.6167,75.58,63,1,12.19,clear sky
256,Filingue,NE,14.3521,3.3168,86.54,56,96,17.78,overcast clouds
257,Dubbo,AU,-32.25,148.6167,50.13,81,75,4.61,broken clouds
258,Fortuna,US,40.5982,-124.1573,61.41,92,100,1.01,overcast clouds
259,Xichang,CN,27.8964,102.2634,83.5,56,50,3.85,scattered clouds
260,Half Moon Bay,US,37.4636,-122.4286,64.63,87,1,0.0,clear sky
261,Coquimbo,CL,-29.9533,-71.3436,47.93,81,0,8.05,clear sky
262,Port Blair,IN,11.6667,92.75,83.52,81,90,20.96,overcast clouds
263,Chokurdakh,RU,70.6333,147.9167,51.57,47,100,14.34,overcast clouds
264,Saryozek,KZ,44.3583,77.9753,99.79,11,0,11.45,clear sky
265,Karla,EE,59.3723,24.9275,82.15,41,0,6.91,clear sky
266,Virden,US,39.5009,-89.7679,71.38,90,74,5.66,broken clouds
267,Saint-Pierre,RE,-21.3393,55.4781,76.68,61,0,27.63,clear sky
268,Ishigaki,JP,24.3448,124.1572,86.13,89,75,9.22,broken clouds
269,Marsabit,KE,2.3284,37.9899,71.1,38,16,18.28,few clouds
270,Saint-Philippe,RE,-21.3585,55.7679,76.59,67,1,10.83,clear sky
271,Tangshan,CN,39.6333,118.1833,86.77,62,83,9.73,broken clouds
272,Konosha,RU,60.9736,40.257,73.17,43,99,10.71,overcast clouds
273,Kruisfontein,ZA,-34.0033,24.7314,72.88,22,100,18.07,overcast clouds
274,Komatipoort,ZA,-25.4332,31.9548,70.05,45,2,3.67,clear sky
275,Macas,EC,-2.3167,-78.1167,64.31,88,64,3.2,broken clouds
276,Narsaq,GL,60.9167,-46.05,48.42,51,77,4.45,broken clouds
277,Vestmannaeyjar,IS,63.4427,-20.2734,49.19,93,90,16.11,overcast clouds
278,Chapais,CA,49.7834,-74.8492,51.58,95,75,4.05,broken clouds
279,Gimli,CA,50.6336,-96.9907,64.06,75,79,5.14,broken clouds
280,Vila Franca Do Campo,PT,37.7167,-25.4333,70.21,77,65,7.45,broken clouds
281,Ketchikan,US,55.3422,-131.6461,52.27,93,90,3.44,overcast clouds
282,Magaria,NE,12.9983,8.9099,81.52,66,100,14.94,overcast clouds
283,Saint-Francois,FR,46.4154,3.9054,73.18,70,75,9.22,broken clouds
284,Pimentel,PE,-6.8367,-79.9342,64.69,87,40,1.99,scattered clouds
285,Zatoka,UA,46.0725,30.4654,86.54,59,0,7.74,clear sky
286,Kaduna,NG,10.5222,7.4383,74.93,81,98,9.93,light rain
287,Pangnirtung,CA,66.1451,-65.7125,51.4,91,97,5.23,overcast clouds
288,Andros Town,BS,24.7,-77.7667,80.56,75,77,8.23,broken clouds
289,Tambopata,PE,-12.7333,-69.1833,67.41,75,2,2.71,clear sky
290,Paita,PE,-5.0892,-81.1144,64.89,89,26,12.06,scattered clouds
291,Chaman,PK,30.9236,66.4512,103.64,8,0,7.61,clear sky
292,Talnakh,RU,69.4865,88.3972,69.96,72,99,2.37,light rain
293,Rawson,AR,-43.3002,-65.1023,39.83,54,22,21.88,few clouds
294,Mizdah,LY,31.4451,12.9801,86.05,29,0,8.08,clear sky
295,Dalbandin,PK,28.8947,64.4101,109.22,7,7,1.54,clear sky
296,Almaznyy,RU,48.0448,40.045,87.94,31,67,8.43,broken clouds
297,Mecca,SA,21.4267,39.8261,100.11,25,26,11.12,scattered clouds
298,Capao Da Canoa,BR,-29.7456,-50.0097,64.15,90,93,4.0,overcast clouds
299,Guadix,ES,37.2993,-3.1392,74.97,53,0,5.35,clear sky
300,Norman Wells,CA,65.282,-126.8329,57.24,88,75,4.61,light rain
301,Nantucket,US,41.2835,-70.0995,73.99,93,90,12.66,mist
302,Jiangyou,CN,31.7667,104.7167,86.45,66,27,2.26,moderate rain
303,Linxia,CN,35.6003,103.2064,68.72,59,100,1.54,overcast clouds
304,Sovetskiy,RU,61.3614,63.5842,67.87,37,47,8.03,scattered clouds
305,Plettenberg Bay,ZA,-34.0527,23.3716,69.06,32,100,13.35,overcast clouds
306,Rocha,UY,-34.4833,-54.3333,51.78,93,93,7.47,overcast clouds
307,Port Lincoln,AU,-34.7333,135.8667,55.8,70,8,13.6,clear sky
308,Iquitos,PE,-3.7481,-73.2472,73.44,100,75,3.44,broken clouds
309,Mahibadhoo,MV,3.7833,72.9667,81.25,76,100,8.39,overcast clouds
310,Ann Arbor,US,42.2776,-83.7409,69.19,89,1,0.0,clear sky
311,Luderitz,NA,-26.6481,15.1594,75.63,28,64,11.95,broken clouds
312,San Jose,US,37.3394,-121.895,65.35,80,1,0.0,clear sky
313,Naze,JP,28.3667,129.4833,79.72,86,100,14.99,overcast clouds
314,Svetlogorsk,BY,52.6333,29.7333,80.47,46,33,5.93,scattered clouds
315,Shatki,RU,55.1887,44.1249,74.64,34,37,6.2,scattered clouds
316,Pucallpa,PE,-8.3791,-74.5539,68.49,85,6,1.63,clear sky
317,Ust-Maya,RU,60.4167,134.5333,75.54,58,3,3.56,clear sky
318,Sijunjung,ID,-0.6876,100.9537,88.14,54,71,3.85,broken clouds
319,Oeiras,BR,-7.0253,-42.1311,70.65,72,13,9.91,few clouds
320,Aflao,TG,6.116,1.1914,79.29,69,27,12.86,scattered clouds
321,Manavalakurichi,IN,8.1333,77.3,84.29,73,63,18.45,broken clouds
322,Inuvik,CA,68.3499,-133.7218,52.66,87,90,2.3,overcast clouds
323,Hay River,CA,60.8156,-115.7999,51.78,82,40,5.75,scattered clouds
324,Tongliao,CN,43.6125,122.2653,86.59,53,100,4.92,overcast clouds
325,Riyadh,SA,24.6877,46.7219,113.05,9,0,19.57,clear sky
326,Villa Carlos Paz,AR,-31.4241,-64.4978,42.39,83,0,3.53,clear sky
327,Cherskiy,RU,68.75,161.3,46.83,60,0,16.31,clear sky
328,Inhumas,BR,-16.3578,-49.4961,63.27,57,4,4.83,clear sky
329,Guerrero Negro,MX,27.9769,-114.0611,67.23,85,30,10.16,scattered clouds
330,Macenta,GN,8.5435,-9.471,69.69,98,100,2.95,overcast clouds
331,Belorechensk,RU,44.76,39.87,90.32,34,2,20.56,clear sky
332,Dingle,PH,10.9995,122.6711,83.01,77,98,14.76,overcast clouds
333,Aconibe,GQ,1.2968,10.9369,73.8,74,96,2.95,overcast clouds
334,Guane,CU,22.2025,-84.0875,75.78,91,61,2.3,broken clouds
335,Camocim,BR,-2.9022,-40.8411,73.74,86,99,12.57,overcast clouds
336,Olhao,PT,37.0286,-7.8411,73.29,68,75,8.05,broken clouds
337,Virginia Beach,US,36.8529,-75.978,78.87,84,40,8.05,scattered clouds
338,Madras,IN,13.0878,80.2785,96.78,49,40,11.5,scattered clouds
339,Tandalti,SD,13.0167,31.8667,78.53,69,98,13.8,overcast clouds
340,Los Llanos De Aridane,ES,28.6585,-17.9182,69.55,91,40,14.97,scattered clouds
341,Cedar City,US,37.6775,-113.0619,69.4,62,1,6.91,clear sky
342,Yima,CN,34.7381,111.8839,86.74,62,49,4.27,light rain
343,Aklavik,CA,68.2191,-135.0107,52.63,90,100,1.86,overcast clouds
344,San Patricio,US,28.017,-97.5169,82.26,95,65,5.82,broken clouds
345,Medicine Hat,CA,50.0501,-110.6683,64.11,55,1,3.0,clear sky
346,Dharchula,IN,29.85,80.5333,78.76,88,100,1.81,overcast clouds
347,Tucuman,AR,-26.8241,-65.2226,42.8,87,0,6.91,smoke
348,Balad,IQ,34.0164,44.1453,118.54,9,0,17.56,clear sky
349,Kununurra,AU,-15.7667,128.7333,87.78,29,57,3.44,broken clouds
350,Vychegodskiy,RU,61.247,46.8984,71.56,50,82,10.36,broken clouds
351,Broken Hill,AU,-31.95,141.4333,54.95,47,3,10.78,clear sky
352,Zima,RU,53.9202,102.0442,81.81,32,98,9.82,overcast clouds
353,San Felipe,VE,10.3399,-68.7425,70.29,95,71,1.88,broken clouds
354,Kemijarvi,FI,66.7131,27.4306,66.51,55,87,6.17,overcast clouds
355,Damavand,IR,35.7178,52.065,88.56,23,1,7.31,clear sky
356,La Rioja,ES,42.25,-2.5,65.05,58,10,6.11,clear sky
357,Bagotville,AU,-28.9833,153.4167,59.02,60,100,8.86,overcast clouds
358,Esso,RU,55.9333,158.7,70.79,78,99,2.71,overcast clouds
359,Nyimba,ZM,-14.5566,30.8149,70.07,36,14,11.45,few clouds
360,Zboriste,BA,45.1458,16.0178,79.18,41,81,5.84,broken clouds
361,Tukums,LV,56.9669,23.1553,81.75,35,7,7.81,clear sky
362,Turayf,SA,31.6725,38.6637,104.25,21,0,11.5,clear sky
363,Moose Factory,CA,51.2585,-80.6094,50.0,93,90,9.22,overcast clouds
364,Zaysan,KZ,47.4667,84.8667,94.06,18,59,16.17,broken clouds
365,Benguela,AO,-12.5763,13.4055,77.43,60,10,5.97,clear sky
366,Yeppoon,AU,-23.1333,150.7333,58.78,54,2,6.46,clear sky
367,Hauterive,FR,46.0901,3.4459,72.36,70,77,4.5,broken clouds
368,Huarmey,PE,-10.0681,-78.1522,63.48,89,7,8.77,clear sky
369,Zhigansk,RU,66.7697,123.3711,68.83,79,45,9.95,scattered clouds
370,Russell,US,32.3502,-85.1999,76.23,91,1,0.0,mist
371,Maningrida,AU,-12.0667,134.2667,76.89,74,97,11.1,overcast clouds
372,Royan,FR,45.6285,-1.0281,70.09,74,29,8.99,scattered clouds
373,Chase,CA,50.8165,-119.6857,68.88,82,3,1.57,clear sky
374,Boaco,NI,12.4722,-85.6586,69.8,98,100,4.61,overcast clouds
375,Ambilobe,MG,-13.2,49.05,89.08,28,9,2.68,clear sky
376,Paamiut,GL,61.994,-49.6678,46.81,67,100,8.7,overcast clouds
377,Miraflores,MX,19.2167,-98.8083,60.03,87,17,1.83,few clouds
378,Okinawa,JP,26.3358,127.8014,85.19,85,90,10.0,overcast clouds
379,Koumac,NC,-20.5667,164.2833,68.7,73,57,13.27,broken clouds
380,Victoria,HK,22.2855,114.1577,93.22,82,80,1.01,broken clouds
381,Deputatskiy,RU,69.3,139.9,53.33,76,100,4.25,overcast clouds
382,Mayo,US,38.8876,-76.5119,77.22,93,1,0.0,clear sky
383,Chingola,ZM,-12.529,27.8838,62.85,37,7,10.89,clear sky
384,Ilhabela,BR,-23.7781,-45.3581,66.11,50,0,4.9,clear sky
385,Bridlington,GB,54.0831,-0.1919,69.06,79,100,1.39,overcast clouds
386,Barcelona,ES,41.3888,2.159,82.56,60,20,1.01,few clouds
387,Agogo,GH,6.8,-1.0819,74.84,68,33,6.26,scattered clouds
388,Caravelas,BR,-17.7125,-39.2481,68.27,87,86,3.33,overcast clouds
389,Miri,MY,4.4148,114.0089,86.14,74,40,4.61,light rain
390,Tarakan,ID,3.3,117.6333,85.5,70,20,3.44,few clouds
391,Vila,PT,42.0304,-8.1588,60.69,76,2,4.45,clear sky
392,Alta Floresta,BR,-9.8756,-56.0861,65.08,60,8,3.65,clear sky
393,The Valley,AI,18.217,-63.0578,82.26,79,100,20.8,overcast clouds
394,Fare,PF,-16.7,-151.0167,78.12,74,40,12.08,scattered clouds
395,Bandarbeyla,SO,9.4942,50.8122,89.13,42,20,28.86,few clouds
396,Bhind,IN,26.5642,78.7883,97.27,43,100,8.08,overcast clouds
397,Uzunovo,RU,54.5386,38.6173,75.58,38,0,5.37,clear sky
398,Mugan,CN,35.9404,101.3842,68.97,54,65,5.57,broken clouds
399,Pangai,TO,-19.8,-174.35,76.82,79,33,6.2,scattered clouds
400,Santa Isabel Do Rio Negro,BR,-0.4139,-65.0192,71.08,98,100,2.24,overcast clouds
401,Rio Gallegos,AR,-51.6226,-69.2181,33.85,100,75,6.91,light snow
402,Chuy,UY,-33.6971,-53.4616,54.46,90,100,9.8,overcast clouds
403,Salalah,OM,17.0151,54.0924,84.29,74,75,14.97,broken clouds
404,Payo,ID,-3.7508,103.6372,88.74,46,7,5.23,clear sky
405,Providencia,MX,28.7167,-111.5833,84.25,60,0,6.91,clear sky
406,Milkovo,RU,54.7167,158.6167,74.14,71,100,7.27,overcast clouds
407,Ammon,US,43.4696,-111.9666,59.95,65,1,0.0,clear sky
408,Nurota,UZ,40.5614,65.6886,107.69,13,0,23.71,clear sky
409,Shama,CN,33.6102,104.2852,57.96,97,100,3.56,overcast clouds
410,Kota Belud,MY,6.351,116.4305,89.46,68,21,9.53,few clouds
411,Port-Gentil,GA,-0.7193,8.7815,80.56,74,40,10.36,scattered clouds
412,Hirara,JP,24.8,125.2833,86.27,89,75,9.22,broken clouds
413,Lachi,PK,33.3833,71.3386,97.34,33,2,2.39,clear sky
414,Balykshi,KZ,47.0667,51.8667,87.8,20,0,15.66,clear sky
415,Monrovia,LR,6.3005,-10.7969,77.36,79,88,6.35,overcast clouds
416,Urumqi,CN,43.801,87.6005,92.35,16,0,8.95,clear sky
417,Keflavik,IS,64.0049,-22.5624,50.43,93,75,18.41,broken clouds
418,Ponta Delgada,PT,37.7333,-25.6667,70.52,78,75,11.5,broken clouds
419,Barisal,BD,22.7019,90.3711,90.23,68,100,5.46,overcast clouds
420,Innisfail,AU,-17.5333,146.0333,67.14,75,41,5.59,scattered clouds
421,Tiznit,MA,29.5833,-9.5,77.4,40,0,5.5,clear sky
422,Anaconda,US,46.1285,-112.9423,64.02,25,59,4.92,broken clouds
423,Chernyshevskiy,RU,63.0128,112.4714,86.58,28,0,4.36,clear sky
424,Rosarito,MX,32.3333,-117.0333,70.39,86,86,3.56,overcast clouds
425,Saint Austell,GB,50.3383,-4.7658,75.02,94,75,8.05,mist
426,Karpathos,GR,35.507,27.2132,82.36,83,20,32.21,few clouds
427,Pisco,PE,-13.7,-76.2167,56.01,82,20,3.44,few clouds
428,Adre,TD,13.4667,22.2,77.67,64,98,3.27,overcast clouds
429,Shitkino,RU,56.3703,98.3543,86.13,36,100,6.17,overcast clouds
430,Yenagoa,NG,4.9247,6.2642,80.17,67,96,6.15,overcast clouds
431,Qostanay,KZ,53.1667,63.5833,70.09,40,0,13.42,clear sky
432,Bratsk,RU,56.1325,101.6142,84.69,35,13,4.09,few clouds
433,Cockburn Town,TC,21.4612,-71.1419,81.91,83,20,15.46,few clouds
434,Antalaha,MG,-14.9003,50.2788,72.66,75,95,13.94,light rain
435,Qarqin,AF,37.4185,66.0436,111.38,8,0,5.68,clear sky
436,Baruun-Urt,MN,46.6806,113.2792,69.73,47,100,10.33,overcast clouds
437,Castro-Urdiales,ES,43.3829,-3.2204,71.35,74,66,6.11,broken clouds
438,Beloha,MG,-25.1667,45.05,67.55,59,24,20.04,light rain
439,Bereda,ES,43.2686,-7.5406,69.42,96,62,2.89,broken clouds
440,Vanavara,RU,60.34,102.2797,88.59,28,33,8.77,scattered clouds
441,Moyale,KE,3.5167,39.0584,73.87,42,59,18.77,broken clouds
442,Novikovo,RU,51.1537,37.8879,80.8,36,2,6.11,clear sky
443,Paonta Sahib,IN,30.45,77.6167,82.51,81,100,2.95,overcast clouds
444,Worland,US,44.0169,-107.9554,80.6,28,1,8.05,clear sky
445,Nome,US,64.5011,-165.4064,48.27,93,90,10.36,moderate rain
446,Albanel,CA,48.8832,-72.4487,59.14,94,76,0.0,broken clouds
447,Dunedin,NZ,-45.8742,170.5036,49.8,84,100,1.01,light rain
448,Tambura,SS,5.6,27.4667,77.92,67,100,2.93,overcast clouds
449,Saint-Augustin,CA,51.226,-58.6502,54.84,90,20,3.98,few clouds
450,Zonalnaya Stantsiya,RU,56.4269,85.0221,80.71,61,40,8.95,light rain
451,Lomovka,RU,53.9194,58.3672,67.12,35,40,6.13,scattered clouds
452,Jega,NG,12.2175,4.3792,80.65,73,100,9.86,overcast clouds
453,Yinchuan,CN,38.4681,106.2731,90.45,20,98,6.55,overcast clouds
454,Alindao,CF,5.0267,21.2088,80.35,69,98,4.59,light rain
455,Peruibe,BR,-24.32,-46.9983,62.74,50,0,4.97,clear sky
456,Krasnyy,RU,54.5678,31.4333,78.33,47,32,5.97,scattered clouds
457,Ashqelon,IL,31.6693,34.5715,93.4,64,6,10.33,clear sky
458,Santa Vitoria Do Palmar,BR,-33.5189,-53.3681,54.36,92,100,9.6,overcast clouds
459,Steamboat Springs,US,40.485,-106.8317,62.19,62,1,0.0,clear sky
460,Pechenga,RU,69.5259,31.1703,52.66,69,100,14.81,overcast clouds
461,Isabela,PH,6.7085,121.9711,84.9,73,97,6.69,overcast clouds
462,Mantua,IT,45.1667,10.7833,84.34,62,13,1.99,few clouds
463,Esperance,AU,-33.8667,121.9,62.58,57,5,19.71,clear sky
464,Vandra,EE,58.6481,25.0361,82.18,36,13,4.25,few clouds
465,Amur,RU,54.0,128.0,71.33,68,12,4.99,few clouds
466,Shache,CN,38.4167,77.2406,104.29,12,0,10.6,clear sky
467,Laguna,US,38.421,-121.4238,82.2,56,1,1.01,clear sky
468,Olonets,RU,60.9847,32.9698,72.18,54,35,10.04,scattered clouds
469,Luancheng,CN,37.8792,114.6517,89.76,60,99,5.77,overcast clouds
470,Onega,RU,63.9061,38.1404,61.79,61,72,13.53,broken clouds
471,Lumsden,CA,50.6501,-104.8678,60.96,60,18,7.52,few clouds
472,Kutum,SD,14.2,24.6667,79.54,56,85,7.23,overcast clouds
473,Male,MV,4.1748,73.5089,80.13,80,100,6.64,overcast clouds
474,Okha,RU,53.5739,142.9478,67.15,86,98,8.37,overcast clouds
475,Ponnani,IN,10.767,75.9252,83.52,75,90,8.9,overcast clouds
476,Dombas,NO,62.0696,9.1235,69.84,48,7,11.83,clear sky
477,Ouegoa,NC,-20.35,164.4333,69.8,72,45,6.93,scattered clouds
478,Toul,FR,48.6667,5.9167,69.4,70,90,12.66,overcast clouds
479,Mangan,IN,27.5167,88.5333,83.28,88,100,4.63,heavy intensity rain
480,Yulara,AU,-25.2406,130.9889,71.44,13,5,6.91,clear sky
481,Ilulissat,GL,69.2167,-51.1,46.42,66,75,4.61,broken clouds
482,Hualmay,PE,-11.0964,-77.6139,62.11,88,17,8.68,few clouds
483,Puerto Suarez,BO,-18.95,-57.8,67.46,52,4,2.19,clear sky
484,Salinopolis,BR,-0.6136,-47.3561,77.4,84,29,5.35,scattered clouds
485,Fairbanks,US,64.8378,-147.7164,59.81,79,90,0.0,overcast clouds
486,San Martin,AR,-33.081,-68.4681,41.54,52,0,9.04,clear sky
487,Havoysund,NO,70.9963,24.6622,49.08,75,89,2.95,overcast clouds
488,Aradippou,CY,34.95,33.5917,97.56,73,20,13.0,few clouds
489,Ozernovskiy,RU,51.5,156.5167,60.62,95,87,5.99,overcast clouds
490,Margate,GB,51.3813,1.3862,70.3,85,54,3.0,broken clouds
491,Sayyan,YE,15.1718,44.3244,73.08,40,72,9.1,broken clouds
492,Roros,NO,62.5747,11.3842,69.64,56,0,5.75,clear sky
493,Macapa,BR,0.0389,-51.0664,78.78,100,40,2.3,scattered clouds
494,Dandong,CN,40.1292,124.3947,84.81,70,100,4.03,overcast clouds
495,Basoko,CD,1.2391,23.616,87.87,48,86,4.36,light rain
496,Saint Anthony,US,45.0205,-93.218,74.8,76,20,1.01,few clouds
497,Emerald,AU,-23.5333,148.1667,64.35,32,48,9.1,scattered clouds
498,Coahuayana,MX,18.7333,-103.6833,76.96,90,54,3.87,broken clouds
499,Belmonte,BR,-15.8631,-38.8828,64.9,86,50,5.84,scattered clouds
500,Airai,TL,-8.9266,125.4092,66.42,61,60,2.19,broken clouds
501,Durban,ZA,-29.8579,31.0292,70.92,55,3,3.0,clear sky
502,Wahpeton,US,46.2652,-96.6059,68.92,88,90,11.5,overcast clouds
503,Juan Lacaze,UY,-34.4342,-57.4381,46.11,76,2,13.29,clear sky
504,Shubarshi,KZ,48.5872,57.1869,83.17,21,0,14.81,clear sky
505,Rundu,NA,-17.9333,19.7667,64.96,31,0,11.39,clear sky
506,Itarema,BR,-2.9248,-39.9167,75.07,81,70,15.52,broken clouds
507,San Vicente,AR,-26.6167,-54.1333,68.47,46,99,7.52,overcast clouds
508,Shahr-E Kord,IR,32.3256,50.8644,89.37,11,40,13.8,scattered clouds
509,Shieli,KZ,44.1667,66.75,99.37,20,0,20.0,clear sky
510,Sabha,LY,27.0377,14.4283,90.5,21,0,12.44,clear sky
511,Clinton,US,42.587,-82.9199,70.12,79,1,3.0,clear sky
512,Tottori,JP,35.5,134.2333,84.27,74,20,5.75,few clouds
513,Iskateley,RU,67.6803,53.1512,49.1,70,100,12.39,overcast clouds
514,Quang Ngai,VN,15.1167,108.8,92.52,52,92,6.44,overcast clouds
515,Atar,MR,20.5169,-13.0499,94.69,23,6,15.3,clear sky
516,Canalete,CO,8.6761,-76.2042,72.66,94,98,2.28,overcast clouds
517,Mercedes,AR,-34.6515,-59.4307,46.83,71,68,7.07,broken clouds
518,Boulder City,US,35.9786,-114.8325,77.65,78,75,5.75,broken clouds
519,Reitz,ZA,-27.8014,28.4273,49.66,27,52,5.03,broken clouds
520,Ziro,IN,27.6333,93.8333,66.94,94,100,2.75,light rain
521,Faridpur,BD,23.6,89.8333,91.4,63,100,8.23,overcast clouds
522,Wairoa,NZ,-39.0333,177.3667,54.61,93,70,4.0,light rain
523,Bulaevo,KZ,54.9056,70.4439,68.07,36,6,19.04,clear sky
524,Bolitoc,PH,15.7395,119.8769,81.97,88,100,14.41,overcast clouds
525,Juneau,US,58.3019,-134.4197,52.84,95,75,3.44,broken clouds
526,Bolshaya Martynovka,RU,47.271,41.6679,91.17,23,0,8.16,clear sky
527,Zyryanka,RU,65.75,150.85,61.27,43,25,6.89,scattered clouds
528,La Ronge,CA,55.1001,-105.2842,53.85,94,75,2.3,fog
529,Levelland,US,33.5873,-102.378,77.2,61,96,5.41,overcast clouds
530,Zhuhai,CN,22.2769,113.5678,92.97,74,20,11.5,few clouds
531,Ukiah,US,39.1502,-123.2078,70.38,55,1,5.75,clear sky
532,Usinsk,RU,65.9939,57.5281,53.92,55,99,15.57,overcast clouds
533,Pishin,PK,30.5803,66.9961,100.26,9,2,6.15,clear sky
534,Zapolyarnyy,RU,69.4154,30.8136,51.08,65,98,14.07,overcast clouds
535,Katsuura,JP,35.1333,140.3,84.11,77,100,18.77,heavy intensity rain
536,Labytnangi,RU,66.6572,66.4183,59.97,43,56,7.34,broken clouds
537,Manoel Urbano,BR,-8.8389,-69.2597,70.83,83,57,2.48,broken clouds
538,Taksimo,RU,56.3444,114.8794,79.43,32,10,3.96,clear sky
539,Omsukchan,RU,62.5333,155.8,51.96,99,100,7.14,moderate rain
540,Maragogi,BR,-9.0122,-35.2225,73.36,86,64,9.4,broken clouds
541,Hami,CN,42.8,93.45,100.22,9,2,9.15,clear sky
542,Iracoubo,GF,5.4802,-53.2011,75.43,91,32,5.39,scattered clouds
543,Kenai,US,60.5544,-151.2583,53.1,87,1,12.66,clear sky
544,Soure,BR,-0.7167,-48.5233,78.19,81,56,5.86,broken clouds
545,Xining,CN,36.6167,101.7667,70.99,46,81,4.65,broken clouds
546,Novyy Urengoy,RU,66.0833,76.6333,53.17,85,100,9.75,moderate rain
547,Amapa,BR,1.0,-52.0,68.45,99,37,1.03,scattered clouds
548,Marienburg,PL,54.0359,19.0266,74.88,69,100,10.4,overcast clouds
549,Ihosy,MG,-22.4,46.1167,66.61,51,17,14.18,few clouds
550,Mount Gambier,AU,-37.8333,140.7667,53.51,94,90,9.22,light rain
551,Cuenca,EC,-2.8833,-78.9833,50.95,95,97,1.34,overcast clouds
552,Saceni,RO,44.2333,25.0667,84.07,34,2,7.43,clear sky
553,Gijon,ES,43.5357,-5.6615,73.45,75,19,1.99,few clouds
554,Mocuba,MZ,-16.8392,36.9856,68.85,70,88,7.83,light rain
555,Mount Pleasant,US,32.7941,-79.8626,78.98,95,75,1.99,broken clouds
556,Flin Flon,CA,54.7682,-101.865,49.82,80,40,3.38,scattered clouds
557,Talara,PE,-4.5772,-81.2719,65.95,86,38,16.17,scattered clouds
558,Kovdor,RU,67.5662,30.4758,57.13,50,25,10.09,scattered clouds
559,Davila,PH,18.4726,120.5763,82.42,88,99,26.6,moderate rain
560,Yuzhno-Kurilsk,RU,44.0306,145.8556,65.08,97,51,6.38,broken clouds
561,San Roque,ES,36.2107,-5.3842,79.61,73,75,11.5,broken clouds
562,Altoona,US,40.5187,-78.3947,69.24,92,100,2.46,overcast clouds
563,Khandbari,NP,27.3747,87.2039,80.94,81,100,3.83,light rain
564,Luocheng,CN,29.3848,104.0286,83.48,78,65,5.23,light rain
565,Cabedelo,BR,-6.9811,-34.8339,72.27,82,20,12.71,few clouds
566,Datong,CN,40.0936,113.2914,82.65,39,96,9.1,moderate rain
567,Maple Creek,CA,49.9168,-109.4848,66.25,45,1,2.3,clear sky
568,Kikwit,CD,-5.041,18.8162,90.3,17,91,7.65,overcast clouds
569,Magistralnyy,RU,56.1725,107.4458,84.96,28,60,4.14,broken clouds
570,Lianyuan,CN,27.6883,111.6642,91.67,54,28,5.86,scattered clouds
571,Kamogawa,JP,35.1,140.1,84.06,71,100,14.85,heavy intensity rain
572,Santiago Tuxtla,MX,18.4667,-95.3,71.17,85,0,1.57,clear sky
573,Kaohsiung,TW,22.6163,120.3133,90.09,87,75,8.99,broken clouds
574,Banda Aceh,ID,5.5577,95.3222,86.7,65,97,15.77,overcast clouds
575,Sorland,NO,67.667,12.6934,57.27,84,99,5.5,overcast clouds
576,Semirom,IR,31.4167,51.5667,81.36,12,0,20.15,clear sky
577,Olinda,BR,-8.0089,-34.8553,73.13,83,75,5.75,broken clouds
578,Huambo,AO,-12.7761,15.7392,67.71,29,70,8.28,broken clouds
579,Vuktyl,RU,63.8567,57.3094,54.77,53,100,9.35,overcast clouds
580,Nelson Bay,AU,-32.7167,152.15,60.01,65,0,1.99,clear sky
581,South River,US,40.4465,-74.386,75.2,91,100,1.01,overcast clouds
582,Turukhansk,RU,65.8167,87.9833,86.79,36,100,15.01,overcast clouds
583,Storforshei,NO,66.4043,14.5233,67.78,68,0,3.44,clear sky
584,Ternate,ID,0.8,127.4,82.6,74,97,8.48,overcast clouds
585,Niquero,CU,20.0431,-77.5828,78.12,84,56,5.37,broken clouds
586,Abu Samrah,SY,35.3029,37.1841,94.84,25,0,6.55,clear sky
587,Ulladulla,AU,-35.35,150.4667,58.08,61,100,12.71,overcast clouds
588,Acapulco,MX,16.8634,-99.8901,79.23,87,98,5.01,overcast clouds
589,Corpus Christi,US,27.8006,-97.3964,82.4,92,40,1.99,scattered clouds
590,San Nicolas,PH,18.1725,120.5953,82.06,88,94,21.47,light rain
591,Whitehorse,CA,60.7161,-135.0538,57.97,54,90,9.22,overcast clouds
592,Ancud,CL,-41.8697,-73.8203,35.13,73,60,8.08,broken clouds
593,Isiro,CD,2.7739,27.616,73.29,90,83,3.4,moderate rain
594,Chornukhy,UA,50.2673,32.942,82.72,41,4,5.5,clear sky
595,Teeli,RU,51.0333,90.2333,79.81,36,76,9.08,broken clouds
596,Tuatapere,NZ,-46.1333,167.6833,48.81,94,100,8.14,overcast clouds
597,Port Keats,AU,-14.25,129.55,77.23,77,43,8.28,scattered clouds
598,Galich,RU,58.3797,42.3475,75.47,37,24,10.56,few clouds
599,Askarovo,RU,53.3372,58.5089,67.15,37,75,4.47,broken clouds
600,Vera Cruz,BR,-12.6333,-41.0333,62.17,97,20,1.92,few clouds
601,Iskilip,TR,40.7353,34.4739,80.19,39,10,5.21,clear sky
602,Meadow Lake,US,34.8014,-106.5436,71.08,69,100,4.05,overcast clouds
603,Dumai,ID,1.6833,101.45,90.25,56,96,1.83,overcast clouds
604,Videira,BR,-27.0083,-51.1517,54.46,87,61,3.27,broken clouds
605,Lagoa,PT,39.05,-27.9833,69.22,80,99,10.22,overcast clouds
606,Daragutan,PH,17.0,122.0333,85.01,74,100,4.85,overcast clouds
607,Talcahuano,CL,-36.7167,-73.1167,42.48,81,0,4.61,clear sky
608,Minjur,IN,13.2667,80.2667,96.82,38,82,9.89,broken clouds
609,Lichinga,MZ,-13.3128,35.2406,60.89,55,75,16.11,broken clouds
610,Yar-Sale,RU,66.8333,70.8333,60.62,52,98,9.98,overcast clouds
611,Walvis Bay,NA,-22.9575,14.5053,83.35,20,0,36.82,clear sky
612,Berlevag,NO,70.8578,29.0864,44.55,81,75,14.97,broken clouds
613,Huzhou,CN,30.8703,120.0933,78.37,96,100,19.35,light rain
614,Bafia,CM,4.75,11.2333,74.8,79,88,4.54,overcast clouds
615,Srednekolymsk,RU,67.45,153.6833,57.87,41,1,11.83,clear sky
616,Griffith,US,41.5284,-87.4237,73.02,93,1,0.0,clear sky
617,Bud,US,39.447,-86.1758,73.58,93,85,4.34,overcast clouds
618,Bisira,PA,8.5196,-81.7115,58.68,96,100,2.06,overcast clouds
619,Wajir,KE,1.7471,40.0573,85.06,34,40,25.5,scattered clouds
620,Hadejia,NG,12.4498,10.0444,78.57,75,100,15.19,overcast clouds
621,Cururupu,BR,-1.8283,-44.8683,72.84,94,73,3.18,broken clouds
622,Ramanuj Ganj,IN,23.8,83.7,86.18,68,99,9.69,moderate rain
623,Vostok,RU,46.4856,135.8833,80.26,71,100,1.36,light rain
624,Strezhevoy,RU,60.7333,77.5889,55.38,93,100,11.45,overcast clouds
625,Kargopol,RU,61.5071,38.9456,67.41,61,92,6.96,overcast clouds
626,Nagato,JP,34.3833,131.2,84.15,75,0,6.89,clear sky
627,Shellbrook,CA,53.2168,-106.4011,58.23,59,100,6.31,overcast clouds
628,Montbrison,FR,45.6667,4.0833,71.78,65,94,0.81,overcast clouds
629,Am Timan,TD,11.0297,20.2827,78.58,69,100,6.26,overcast clouds
630,Storsteinnes,NO,69.2408,19.2344,57.38,81,100,0.89,overcast clouds
631,Shingu,JP,33.7333,135.9833,84.9,77,47,7.54,scattered clouds
632,Panaba,MX,21.2833,-88.2667,73.69,94,13,5.3,few clouds
633,Kudahuvadhoo,MV,2.6708,72.8944,81.21,70,100,3.18,overcast clouds
634,Taoudenni,ML,22.6783,-3.9836,105.87,5,5,11.88,clear sky
635,Jalu,LY,29.0331,21.5482,85.51,35,0,6.73,clear sky
636,Kasongo-Lunda,CD,-6.4667,16.8167,86.18,22,99,7.61,overcast clouds
637,San Carlos De Bariloche,AR,-41.1456,-71.3082,26.35,68,0,0.0,clear sky
638,Port Macquarie,AU,-31.4333,152.9167,57.16,58,5,3.29,clear sky
639,Agadir,MA,30.4202,-9.5982,70.25,63,2,4.68,clear sky
640,Katangli,RU,51.7102,143.2326,72.57,81,100,3.53,overcast clouds
641,Bukachacha,RU,52.9833,116.9167,68.16,56,65,12.86,broken clouds
642,Yumen,CN,40.2833,97.2,91.65,12,93,20.38,overcast clouds
643,Brasilia De Minas,BR,-16.2064,-44.4333,57.87,77,0,9.1,clear sky
644,Catamarca,AR,-28.4696,-65.7852,50.77,70,0,0.67,clear sky
645,Mizan Teferi,ET,6.9833,35.5833,62.17,92,100,0.47,overcast clouds
646,Zhangye,CN,38.9342,100.4517,91.72,12,86,13.96,overcast clouds
647,Port Hedland,AU,-20.3167,118.5667,75.25,35,91,11.5,overcast clouds
648,Pak Chong,TH,14.708,101.4161,76.15,87,100,7.92,overcast clouds
649,Lazaro Cardenas,MX,17.9583,-102.2,78.3,90,81,3.02,broken clouds
650,Lethem,GY,3.3803,-59.7968,72.72,93,100,4.81,overcast clouds
651,Dargaville,NZ,-35.9333,173.8833,53.91,87,100,13.67,heavy intensity rain
652,Stranraer,GB,54.9023,-5.0273,66.47,90,79,9.71,broken clouds
653,Shitanjing,CN,39.2342,106.3439,82.63,27,70,7.94,light rain
654,Kadaya,RU,50.9327,119.2911,68.68,81,4,9.78,clear sky
655,Ngaoundere,CM,7.3167,13.5833,67.46,94,100,6.13,light rain
656,Gat,IL,31.61,34.7642,92.39,47,2,11.74,clear sky
657,Husavik,IS,66.0449,-17.3389,55.31,54,4,11.07,clear sky
658,Newark,US,40.7357,-74.1724,75.25,89,90,3.44,mist
659,Zalari,RU,53.5584,102.5065,81.03,37,100,9.48,overcast clouds
660,Wagga Wagga,AU,-35.1167,147.3667,50.41,100,100,4.61,light rain
661,Ewa Beach,US,21.3156,-158.0072,80.55,73,1,11.99,clear sky
662,Smolenka,RU,52.1352,113.4974,69.87,68,40,2.24,scattered clouds
663,Kodinsk,RU,58.6881,99.1844,90.79,26,10,7.4,clear sky
664,Tingo Maria,PE,-9.2895,-76.0088,66.27,83,26,2.15,scattered clouds
665,Fairmont,US,39.4851,-80.1426,72.27,96,100,2.44,overcast clouds
666,Hornepayne,CA,49.2138,-84.7705,53.55,97,56,1.3,broken clouds
667,Basco,PH,20.4487,121.9702,82.74,88,99,27.94,overcast clouds
668,Valparaiso,CL,-33.0393,-71.6273,53.47,91,40,0.0,scattered clouds
669,Inhambane,MZ,-23.865,35.3833,73.38,56,75,11.5,light rain
670,Umm Kaddadah,SD,13.6017,26.6876,83.97,53,100,13.35,overcast clouds
671,Charters Towers,AU,-20.1,146.2667,64.24,27,86,8.77,overcast clouds
672,Lusambo,CD,-4.9667,23.45,87.3,22,64,7.58,broken clouds
673,Karasjok,NO,69.4719,25.5112,48.31,77,100,5.61,overcast clouds
674,Muros,ES,42.7762,-9.0603,71.24,75,13,6.04,few clouds
675,Ejea De Los Caballeros,ES,42.1263,-1.1372,73.85,44,13,12.3,few clouds
676,San Joaquin,US,37.9333,-121.3011,77.11,50,1,6.91,clear sky
677,Arinos,BR,-15.9169,-46.1056,55.65,58,2,2.35,clear sky
678,Douentza,ML,14.9951,-2.9517,89.58,46,55,8.16,broken clouds
679,Mirnyy,RU,62.5353,113.9611,86.25,30,0,4.76,clear sky
680,Yuncheng,CN,35.0231,110.9928,80.71,75,66,15.5,broken clouds
